

[
{"__type":"Location:http://schemas.microsoft.com/search/local/ws/rest/v1","bbox":[53.4893957,10.2011905,53.4916441,10.2049695],"name":"Bergedorfer Straße 74, 21033 Hamburg, Germany","point":{"type":"Point","coordinates":[53.4905199,10.20308]},"address":{"addressLine":"Bergedorfer Straße 74","adminDistrict":"HH","adminDistrict2":"Stadt Hamburg","countryRegion":"Germany","formattedAddress":"Bergedorfer Straße 74, 21033 Hamburg, Germany","locality":"Hamburg","postalCode":"21033"},"confidence":"High","entityType":"Address","geocodePoints":[{"type":"Point","coordinates":[53.4905199,10.20308],"calculationMethod":"Rooftop","usageTypes":["Display"]},{"type":"Point","coordinates":[53.4905199,10.20309],"calculationMethod":"Rooftop","usageTypes":["Route"]}],"matchCodes":["Good"]},
{"__type":"Location:http://schemas.microsoft.com/search/local/ws/rest/v1","bbox":[48.4460658,11.1364852,48.4483142,11.1398748],"name":"Rudolf-Diesel-Straße 3, 86551 Aichach, Germany","point":{"type":"Point","coordinates":[48.44719,11.13818]},"address":{"addressLine":"Rudolf-Diesel-Straße 3","adminDistrict":"BY","adminDistrict2":"Aichach-Friedberg","countryRegion":"Germany","formattedAddress":"Rudolf-Diesel-Straße 3, 86551 Aichach, Germany","locality":"Aichach","postalCode":"86551"},"confidence":"High","entityType":"Address","geocodePoints":[{"type":"Point","coordinates":[48.44719,11.13818],"calculationMethod":"Rooftop","usageTypes":["Display"]},{"type":"Point","coordinates":[48.44704,11.1378],"calculationMethod":"Rooftop","usageTypes":["Route"]}],"matchCodes":["Good"]},
{"__type":"Location:http://schemas.microsoft.com/search/local/ws/rest/v1","bbox":[50.7415658,9.2562035,50.7438142,9.2597565],"name":"Grünberger Straße 76, 36304 Alsfeld, Germany","point":{"type":"Point","coordinates":[50.74269,9.25798]},"address":{"addressLine":"Grünberger Straße 76","adminDistrict":"HE","adminDistrict2":"Vogelsbergkreis","countryRegion":"Germany","formattedAddress":"Grünberger Straße 76, 36304 Alsfeld, Germany","locality":"Alsfeld","postalCode":"36304"},"confidence":"High","entityType":"Address","geocodePoints":[{"type":"Point","coordinates":[50.74269,9.25798],"calculationMethod":"Rooftop","usageTypes":["Display"]},{"type":"Point","coordinates":[50.74312,9.25754],"calculationMethod":"Rooftop","usageTypes":["Route"]}],"matchCodes":["Good"]}
]
